{"stations": [{"code": "82910", "idente": "PABBZ", "location": "Jenesien", "height": "970 m", "coordinates": [11.3319014317962, 46.5303620611061], "region": "Bolzano"}, {"code": "T0356", "idente": "PATUP", "location": "Trento (Aeroporto)", "height": "185 m", "coordinates": [11.12606, 46.015993], "region": "Trento"}, {"code": "62600", "idente": "PABBZ", "location": "St,Martin in Thurn", "height": "1117 m", "coordinates": [11.8979345840115, 46.6791812802566], "region": "Bolzano"}, {"code": "F0053", "idente": "FMACH", "location": "S, Orsola", "height": "792 m", "coordinates": [11.285931, 46.09269], "region": "Trento"}, {"code": "F0032", "idente": "FMACH", "location": "Trento Sud", "height": "185 m", "coordinates": [11.126099, 46.024933], "region": "Trento"}, {"code": "30418", "idente": "PATUD", "location": "Campitello Avisio", "height": "1403 m", "coordinates": [11.74457, 46.474659], "region": "Trento"}, {"code": "L0857", "idente": "LOMBA", "location": "Passo del Giová", "height": "1363 m", "coordinates": [9.21663742809, 44.6837785035], "region": "Lombardia"}, {"code": "F0082", "idente": "FMACH", "location": "Storo", "height": "385 m", "coordinates": [10.562442, 45.84676], "region": "Trento"}, {"code": "L0820", "idente": "LOMBA", "location": "Fraine - Pisogne", "height": "842 m", "coordinates": [10.1530573848, 45.8138896545], "region": "Lombardia"}, {"code": "L1273", "idente": "LOMBA", "location": "Bagni di Masino", "height": "1191 m", "coordinates": [9.59643893418, 46.2434554958], "region": "Lombardia"}, {"code": "F0028", "idente": "FMACH", "location": "Borgo Valsugana", "height": "420 m", "coordinates": [11.47508, 46.045193], "region": "Trento"}, {"code": "F0029", "idente": "FMACH", "location": "Arco", "height": "84 m", "coordinates": [10.88716, 45.9104], "region": "Trento"}, {"code": "T0146", "idente": "PATUP", "location": "Aldeno (San Zeno)", "height": "182 m", "coordinates": [11.091231, 45.968006], "region": "Trento"}, {"code": "06090", "idente": "PABBZ", "location": "Madritsch", "height": "2825 m", "coordinates": [10.6145553155401, 46.4938560115149], "region": "Bolzano"}, {"code": "11796", "idente": "PATUD", "location": "Sarche", "height": "255 m", "coordinates": [10.946892, 46.033166], "region": "Trento"}, {"code": "T0435", "idente": "PATUP", "location": "Pinzolo (Malga Zeledria)", "height": "1775 m", "coordinates": [10.834362, 46.244878], "region": "Trento"}, {"code": "88820", "idente": "PABBZ", "location": "Salurn", "height": "208 m", "coordinates": [11.1854874001216, 46.236236355309], "region": "Bolzano"}, {"code": "L0867", "idente": "LOMBA", "location": "Caslino d` Erba *", "height": "427 m", "coordinates": [9.23237416088, 45.8353910044], "region": "Lombardia"}, {"code": "31927", "idente": "PATUD", "location": "Sorini", "height": "406 m", "coordinates": [10.572674, 45.861369], "region": "Trento"}, {"code": "L0137", "idente": "LOMBA", "location": "Rivolta d` Adda (ersaf) *", "height": "102 m", "coordinates": [9.52070065678, 45.4440920004], "region": "Lombardia"}, {"code": "F0020", "idente": "FMACH", "location": "Verla", "height": "447 m", "coordinates": [11.15108, 46.154442], "region": "Trento"}, {"code": "32119", "idente": "PATUD", "location": "Fiera di Primiero", "height": "713 m", "coordinates": [11.830168, 46.174095], "region": "Trento"}, {"code": "T0115", "idente": "PATUP", "location": "Segonzano (Gresta)", "height": "660 m", "coordinates": [11.289609, 46.211224], "region": "Trento"}, {"code": "F0048", "idente": "FMACH", "location": "Pedersano", "height": "466 m", "coordinates": [11.032673, 45.931816], "region": "Trento"}, {"code": "32599", "idente": "PATUD", "location": "Ponte Arche", "height": "391 m", "coordinates": [10.869658, 46.037218], "region": "Trento"}, {"code": "F0015", "idente": "FMACH", "location": "Riva del Garda", "height": "66 m", "coordinates": [10.856446, 45.877514], "region": "Trento"}, {"code": "35100", "idente": "PABBZ", "location": "Jaufenkamm", "height": "2145 m", "coordinates": [11.3184184393446, 46.8407757078928], "region": "Bolzano"}, {"code": "37700", "idente": "PABBZ", "location": "Grasstein", "height": "850 m", "coordinates": [11.5487826954001, 46.8126471614222], "region": "Bolzano"}, {"code": "20690", "idente": "PABBZ", "location": "Grünboden", "height": "2015 m", "coordinates": [11.1016108946491, 46.7919930294494], "region": "Bolzano"}, {"code": "T0200", "idente": "PATUP", "location": "Tenno", "height": "415 m", "coordinates": [10.831278, 45.91905], "region": "Trento"}, {"code": "F0062", "idente": "FMACH", "location": "Loppio", "height": "213 m", "coordinates": [10.938546, 45.852062], "region": "Trento"}, {"code": "T0371", "idente": "PATUP", "location": "Lases (frana)", "height": "705 m", "coordinates": [11.223419, 46.139381], "region": "Trento"}, {"code": "T0030", "idente": "PATUP", "location": "Canal San Bovo", "height": "750 m", "coordinates": [11.734845, 46.14956], "region": "Trento"}, {"code": "65600", "idente": "PABBZ", "location": "Terenten", "height": "1349 m", "coordinates": [11.7855764017277, 46.8344574068645], "region": "Bolzano"}, {"code": "61690", "idente": "PABBZ", "location": "Piz la Ila", "height": "2050 m", "coordinates": [11.9037814066956, 46.5647238554308], "region": "Bolzano"}, {"code": "T0074", "idente": "PATUP", "location": "Male'", "height": "720 m", "coordinates": [10.918411, 46.351598], "region": "Trento"}, {"code": "65350", "idente": "PABBZ", "location": "Obervintl", "height": "746 m", "coordinates": [11.7533527775484, 46.8110554762597], "region": "Bolzano"}, {"code": "T0063", "idente": "PATUP", "location": "Pian Palu' (Diga)", "height": "1800 m", "coordinates": [10.613936, 46.336633], "region": "Trento"}, {"code": "30974", "idente": "PATUD", "location": "Pradidali", "height": "1226 m", "coordinates": [11.874358, 46.219602], "region": "Trento"}, {"code": "F0064", "idente": "FMACH", "location": "Marco", "height": "158 m", "coordinates": [11.007034, 45.845894], "region": "Trento"}, {"code": "F0019", "idente": "FMACH", "location": "Lavaze'", "height": "1807 m", "coordinates": [11.494065, 46.358234], "region": "Trento"}, {"code": "T0088", "idente": "PATUP", "location": "Tres", "height": "838 m", "coordinates": [11.101437, 46.32065], "region": "Trento"}, {"code": "F0034", "idente": "FMACH", "location": "Dercolo", "height": "416 m", "coordinates": [11.048683, 46.248516], "region": "Trento"}, {"code": "03100", "idente": "PABBZ", "location": "Taufers", "height": "1245 m", "coordinates": [10.4614946467395, 46.637280406372], "region": "Bolzano"}, {"code": "F0071", "idente": "FMACH", "location": "Nave San Rocco", "height": "201 m", "coordinates": [11.090272, 46.167896], "region": "Trento"}, {"code": "T0212", "idente": "PATUP", "location": "Spormaggiore", "height": "555 m", "coordinates": [11.046814, 46.219949], "region": "Trento"}, {"code": "F0099", "idente": "FMACH", "location": "Cimone", "height": "573 m", "coordinates": [11.073576, 45.980736], "region": "Trento"}, {"code": "F0044", "idente": "FMACH", "location": "Cembra", "height": "550 m", "coordinates": [11.226392, 46.166027], "region": "Trento"}, {"code": "T0147", "idente": "PATUP", "location": "Rovereto", "height": "203 m", "coordinates": [11.043987, 45.896325], "region": "Trento"}, {"code": "12311", "idente": "PATUD", "location": "Stedileri", "height": "639 m", "coordinates": [11.171838, 45.867538], "region": "Trento"}, {"code": "30789", "idente": "PATUD", "location": "Buffaure", "height": "2326 m", "coordinates": [11.733183, 46.433895], "region": "Trento"}, {"code": "T0139", "idente": "PATUP", "location": "Sant'Orsola Terme", "height": "925 m", "coordinates": [11.30223, 46.107093], "region": "Trento"}, {"code": "11696", "idente": "PATUD", "location": "Trento Ponte S Lorenzo", "height": "193 m", "coordinates": [11.115775, 46.070251], "region": "Trento"}, {"code": "L0132", "idente": "LOMBA", "location": "Bergamo - Stezzano", "height": "211 m", "coordinates": [9.65877830223, 45.6605258015], "region": "Lombardia"}, {"code": "L0646", "idente": "LOMBA", "location": "Como - Villa Gallia", "height": "201 m", "coordinates": [9.06697858341, 45.8150432159], "region": "Lombardia"}, {"code": "T0427", "idente": "PATUP", "location": "Folgarida Alta", "height": "1375 m", "coordinates": [10.86522, 46.30186], "region": "Trento"}, {"code": "00700", "idente": "PABBZ", "location": "Elferspitze", "height": "2926 m", "coordinates": [10.4878203941323, 46.7767107669462], "region": "Bolzano"}, {"code": "L1222", "idente": "LOMBA", "location": "Cavargna *", "height": "1100 m", "coordinates": [9.1108470945, 46.091549743], "region": "Lombardia"}, {"code": "F0075", "idente": "FMACH", "location": "Zortea", "height": "1035 m", "coordinates": [11.757445, 46.165005], "region": "Trento"}, {"code": "11804", "idente": "PATUD", "location": "Borgo Valsugana", "height": "390 m", "coordinates": [11.460042, 46.053944], "region": "Trento"}, {"code": "F0066", "idente": "FMACH", "location": "Caldonazzo", "height": "467 m", "coordinates": [11.269902, 45.998245], "region": "Trento"}, {"code": "F0101", "idente": "FMACH", "location": "Flavon", "height": "545 m", "coordinates": [11.037565, 46.295692], "region": "Trento"}, {"code": "F0067", "idente": "FMACH", "location": "Pergine", "height": "458 m", "coordinates": [11.240219, 46.052563], "region": "Trento"}, {"code": "02200", "idente": "PABBZ", "location": "St,Valentin auf der Haide", "height": "1520 m", "coordinates": [10.5289021720153, 46.7758722404804], "region": "Bolzano"}, {"code": "30878", "idente": "PATUD", "location": "Lavis", "height": "240 m", "coordinates": [11.1185, 46.137837], "region": "Trento"}, {"code": "44500", "idente": "PABBZ", "location": "St,Magdalena in Gsies", "height": "1412 m", "coordinates": [12.242719198053, 46.8352603115043], "region": "Bolzano"}, {"code": "85120", "idente": "PABBZ", "location": "Deutschnofen", "height": "1470 m", "coordinates": [11.4268582382025, 46.4204860103404], "region": "Bolzano"}, {"code": "06040", "idente": "PABBZ", "location": "Schöntaufspitze", "height": "3328 m", "coordinates": [10.6285857731869, 46.5028817869141], "region": "Bolzano"}, {"code": "F0095", "idente": "FMACH", "location": "Toss - Castello", "height": "512 m", "coordinates": [11.085592, 46.2757], "region": "Trento"}, {"code": "34200", "idente": "PABBZ", "location": "Signalgipfel Wilder Freiger", "height": "3399 m", "coordinates": [11.1928595577628, 46.9683780595745], "region": "Bolzano"}, {"code": "T0393", "idente": "PATUP", "location": "Storo", "height": "385 m", "coordinates": [10.562447, 45.846767], "region": "Trento"}, {"code": "11729", "idente": "PATUD", "location": "Soraga", "height": "1206 m", "coordinates": [11.66671, 46.393291], "region": "Trento"}, {"code": "T0355", "idente": "PATUP", "location": "Passo Brocon", "height": "1610 m", "coordinates": [11.663267, 46.116677], "region": "Trento"}, {"code": "F0024", "idente": "FMACH", "location": "Baselga di Pine'", "height": "983 m", "coordinates": [11.251293, 46.125839], "region": "Trento"}, {"code": "T0373", "idente": "PATUP", "location": "Daone (Malga Bissina)", "height": "1785 m", "coordinates": [10.514122, 46.052903], "region": "Trento"}, {"code": "28233", "idente": "PATUD", "location": "Roncegno", "height": "515 m", "coordinates": [11.405184, 46.048593], "region": "Trento"}, {"code": "T0179", "idente": "PATUP", "location": "Tione", "height": "533 m", "coordinates": [10.730879, 46.041087], "region": "Trento"}, {"code": "T0469", "idente": "PATUP", "location": "Castello Tesino (Le Parti)", "height": "801 m", "coordinates": [11.629929, 46.056924], "region": "Trento"}, {"code": "73500", "idente": "PABBZ", "location": "Wolkenstein", "height": "1570 m", "coordinates": [11.7684297412976, 46.5455551104312], "region": "Bolzano"}, {"code": "T0402", "idente": "PATUP", "location": "Bezzecca (Spessa)", "height": "710 m", "coordinates": [10.725025, 45.895628], "region": "Trento"}, {"code": "F0047", "idente": "FMACH", "location": "Romagnano", "height": "184 m", "coordinates": [11.115474, 46.011227], "region": "Trento"}, {"code": "T0421", "idente": "PATUP", "location": "Caoria", "height": "803 m", "coordinates": [11.683911, 46.192017], "region": "Trento"}, {"code": "15590", "idente": "PABBZ", "location": "Vernagt Finail", "height": "1950 m", "coordinates": [10.8224619953138, 46.7411728825367], "region": "Bolzano"}, {"code": "F0021", "idente": "FMACH", "location": "Ronzo Chienis", "height": "957 m", "coordinates": [10.944168, 45.886196], "region": "Trento"}, {"code": "F0057", "idente": "FMACH", "location": "Rovere della Luna", "height": "208 m", "coordinates": [11.185551, 46.248653], "region": "Bolzano"}, {"code": "L0114", "idente": "LOMBA", "location": "Landriano (ersaf) *", "height": "88 m", "coordinates": [9.26715311477, 45.3205936111], "region": "Lombardia"}, {"code": "F0043", "idente": "FMACH", "location": "Arsio", "height": "800 m", "coordinates": [11.096618, 46.425854], "region": "Trento"}, {"code": "T0422", "idente": "PATUP", "location": "Pieve Tesino (Malga Sorgazza)", "height": "1435 m", "coordinates": [11.59989, 46.133545], "region": "Trento"}, {"code": "L0109", "idente": "LOMBA", "location": "S.Angelo Lodigiano", "height": "60 m", "coordinates": [9.37967092561, 45.2606712431], "region": "Lombardia"}, {"code": "F0030", "idente": "FMACH", "location": "Ala", "height": "172 m", "coordinates": [11.02383, 45.786148], "region": "Trento"}, {"code": "47400", "idente": "PABBZ", "location": "Antholz - Obertal", "height": "1320 m", "coordinates": [12.1166091126236, 46.87035648733], "region": "Bolzano"}, {"code": "T0210", "idente": "PATUP", "location": "Folgaria", "height": "1121 m", "coordinates": [11.164353, 45.915349], "region": "Trento"}, {"code": "F0058", "idente": "FMACH", "location": "Mezzolombardo", "height": "203 m", "coordinates": [11.104432, 46.187275], "region": "Trento"}, {"code": "F0061", "idente": "FMACH", "location": "Volano", "height": "175 m", "coordinates": [11.069575, 45.920372], "region": "Trento"}, {"code": "91180", "idente": "PABBZ", "location": "Rotwandwiesen", "height": "1910 m", "coordinates": [12.3703720250241, 46.6635547886636], "region": "Bolzano"}, {"code": "T0189", "idente": "PATUP", "location": "Santa Massenza (Centrale)", "height": "252 m", "coordinates": [10.980275, 46.065195], "region": "Trento"}, {"code": "T0015", "idente": "PATUP", "location": "Bieno", "height": "843 m", "coordinates": [11.557174, 46.081097], "region": "Trento"}, {"code": "F0040", "idente": "FMACH", "location": "Segno", "height": "525 m", "coordinates": [11.074924, 46.299171], "region": "Trento"}, {"code": "F0083", "idente": "FMACH", "location": "Cavedine", "height": "552 m", "coordinates": [10.981014, 45.985001], "region": "Trento"}, {"code": "50360", "idente": "PABBZ", "location": "Merbalm", "height": "2006 m", "coordinates": [12.1221268734073, 47.0361791697389], "region": "Bolzano"}, {"code": "F0055", "idente": "FMACH", "location": "Nago", "height": "223 m", "coordinates": [10.892236, 45.875774], "region": "Trento"}, {"code": "L0614", "idente": "LOMBA", "location": "Rodano", "height": "112 m", "coordinates": [9.35349881566, 45.4725820033], "region": "Lombardia"}, {"code": "F0084", "idente": "FMACH", "location": "Fondo", "height": "918 m", "coordinates": [11.129643, 46.437698], "region": "Trento"}, {"code": "T0101", "idente": "PATUP", "location": "Zambana (Idrovora)", "height": "205 m", "coordinates": [11.079051, 46.156797], "region": "Trento"}, {"code": "78305", "idente": "PABBZ", "location": "Welschnofen", "height": "1180 m", "coordinates": [11.5365914726405, 46.4288764431533], "region": "Bolzano"}, {"code": "T0426", "idente": "PATUP", "location": "Giustino (frana)", "height": "877 m", "coordinates": [10.775487, 46.147487], "region": "Trento"}, {"code": "75600", "idente": "PABBZ", "location": "Völs am Schlern", "height": "880 m", "coordinates": [11.5059664299884, 46.5131533193556], "region": "Bolzano"}, {"code": "F0038", "idente": "FMACH", "location": "Nanno", "height": "567 m", "coordinates": [11.045521, 46.320042], "region": "Trento"}, {"code": "25900", "idente": "PABBZ", "location": "St,Walburg - Zoggler Stausee", "height": "1144 m", "coordinates": [10.9901357892689, 46.5418717551012], "region": "Bolzano"}, {"code": "F0073", "idente": "FMACH", "location": "Pellizzano", "height": "986 m", "coordinates": [10.774681, 46.316032], "region": "Trento"}, {"code": "F0039", "idente": "FMACH", "location": "Banco-Casez", "height": "593 m", "coordinates": [11.06169, 46.371399], "region": "Trento"}, {"code": "00390", "idente": "PABBZ", "location": "Schöneben", "height": "2040 m", "coordinates": [10.4983950741843, 46.8065763838557], "region": "Bolzano"}, {"code": "F0027", "idente": "FMACH", "location": "S, Michele a/A", "height": "203 m", "coordinates": [11.12022, 46.183498], "region": "Trento"}, {"code": "90000", "idente": "PABBZ", "location": "Clozner Loch", "height": "2165 m", "coordinates": [11.0282677279564, 46.5133653327963], "region": "Bolzano"}, {"code": "L0133", "idente": "LOMBA", "location": "Bema", "height": "800 m", "coordinates": [9.56911216408, 46.1058599113], "region": "Lombardia"}, {"code": "T0369", "idente": "PATUP", "location": "Passo Sommo", "height": "1360 m", "coordinates": [11.206083, 45.918646], "region": "Trento"}, {"code": "66000", "idente": "PABBZ", "location": "Dannelspitz", "height": "2808 m", "coordinates": [11.6871247095994, 46.9433587672584], "region": "Bolzano"}, {"code": "74900", "idente": "PABBZ", "location": "Kollmann-Barbian", "height": "490 m", "coordinates": [11.5291068652519, 46.5951280976493], "region": "Bolzano"}, {"code": "L0117", "idente": "LOMBA", "location": "Edolo - via Morino 5", "height": "699 m", "coordinates": [10.3334017961, 46.1757257169], "region": "Lombardia"}, {"code": "L1216", "idente": "LOMBA", "location": "Valbondione *", "height": "1784 m", "coordinates": [10.0386095758, 46.0645673566], "region": "Lombardia"}, {"code": "56500", "idente": "PABBZ", "location": "Mühlwald", "height": "1141 m", "coordinates": [11.8744328395174, 46.8901358860889], "region": "Bolzano"}, {"code": "T0414", "idente": "PATUP", "location": "San Lorenzo In Banale (Pergoletti)", "height": "685 m", "coordinates": [10.9113, 46.066311], "region": "Trento"}, {"code": "F0013", "idente": "FMACH", "location": "Polsa", "height": "1310 m", "coordinates": [10.947264, 45.781513], "region": "Trento"}, {"code": "F0045", "idente": "FMACH", "location": "Mezzocorona Novali", "height": "216 m", "coordinates": [11.110052, 46.20977], "region": "Trento"}, {"code": "F0085", "idente": "FMACH", "location": "Bezzecca", "height": "705 m", "coordinates": [10.725044, 45.895657], "region": "Trento"}, {"code": "61720", "idente": "PABBZ", "location": "Piz Piscadu", "height": "2985 m", "coordinates": [11.8249605190755, 46.5314368418123], "region": "Bolzano"}, {"code": "T0103", "idente": "PATUP", "location": "Passo Rolle", "height": "2012 m", "coordinates": [11.787124, 46.297919], "region": "Trento"}, {"code": "F0070", "idente": "FMACH", "location": "Terlago", "height": "428 m", "coordinates": [11.046102, 46.087624], "region": "Trento"}, {"code": "20500", "idente": "PABBZ", "location": "Pfelders", "height": "1618 m", "coordinates": [11.0882763257969, 46.796511952516], "region": "Bolzano"}, {"code": "T0397", "idente": "PATUP", "location": "Cles (Maso Maiano)", "height": "655 m", "coordinates": [11.039903, 46.361167], "region": "Trento"}, {"code": "F0068", "idente": "FMACH", "location": "Ospedaletto", "height": "286 m", "coordinates": [11.572446, 46.034103], "region": "Trento"}, {"code": "F0037", "idente": "FMACH", "location": "Coredo", "height": "794 m", "coordinates": [11.085845, 46.344395], "region": "Trento"}, {"code": "31810", "idente": "PABBZ", "location": "Ladurns", "height": "1960 m", "coordinates": [11.3663296995685, 46.9347748223166], "region": "Bolzano"}, {"code": "L0141", "idente": "LOMBA", "location": "Vertemate", "height": "310 m", "coordinates": [9.08549338441, 45.7190125128], "region": "Lombardia"}, {"code": "F0011", "idente": "FMACH", "location": "Pinzolo Pra' Rodont", "height": "1498 m", "coordinates": [10.785802, 46.166477], "region": "Trento"}, {"code": "F0025", "idente": "FMACH", "location": "Denno", "height": "324 m", "coordinates": [11.056045, 46.266727], "region": "Trento"}, {"code": "12325", "idente": "PATUD", "location": "Vò Destro", "height": "130 m", "coordinates": [10.957084, 45.735371], "region": "Trento"}, {"code": "L0525", "idente": "LOMBA", "location": "Corsico", "height": "119 m", "coordinates": [9.09741110253, 45.4361113903], "region": "Lombardia"}, {"code": "34500", "idente": "PABBZ", "location": "Ridnaun", "height": "1350 m", "coordinates": [11.3067741696901, 46.9090827798323], "region": "Bolzano"}, {"code": "F0012", "idente": "FMACH", "location": "Passo Vezzena", "height": "1368 m", "coordinates": [11.31444, 45.96117], "region": "Trento"}, {"code": "L0835", "idente": "LOMBA", "location": "Oga S. Colombano", "height": "2300 m", "coordinates": [10.3059639844, 46.45356517], "region": "Lombardia"}, {"code": "T0425", "idente": "PATUP", "location": "Passo Pian Delle Fugazze", "height": "1170 m", "coordinates": [11.174829, 45.758997], "region": "Trento"}, {"code": "F0035", "idente": "FMACH", "location": "Spormaggiore", "height": "550 m", "coordinates": [11.045454, 46.222683], "region": "Trento"}, {"code": "L1212", "idente": "LOMBA", "location": "Castione della Presolana *", "height": "1180 m", "coordinates": [10.0633295724, 45.9284542179], "region": "Lombardia"}, {"code": "F0074", "idente": "FMACH", "location": "Romeno", "height": "914 m", "coordinates": [11.109279, 46.394104], "region": "Trento"}, {"code": "15800", "idente": "PABBZ", "location": "Vernagt", "height": "1700 m", "coordinates": [10.8492796642308, 46.7356578319619], "region": "Bolzano"}, {"code": "11690", "idente": "PATUD", "location": "Mezzolombardo Ponte Rupe", "height": "189 m", "coordinates": [11.103186, 46.194092], "region": "Trento"}, {"code": "F0046", "idente": "FMACH", "location": "Cognola", "height": "345 m", "coordinates": [11.133946, 46.079643], "region": "Trento"}, {"code": "24300", "idente": "PABBZ", "location": "Rossbänke", "height": "2255 m", "coordinates": [10.8194358193793, 46.4693510471894], "region": "Bolzano"}, {"code": "T0094", "idente": "PATUP", "location": "Passo Costalunga", "height": "1750 m", "coordinates": [11.613615, 46.404528], "region": "Trento"}, {"code": "11772", "idente": "PATUD", "location": "Pellizzano", "height": "926 m", "coordinates": [10.761662, 46.311303], "region": "Trento"}, {"code": "L0142", "idente": "LOMBA", "location": "Caiolo", "height": "274 m", "coordinates": [9.7925233401, 46.1549274573], "region": "Lombardia"}, {"code": "T0392", "idente": "PATUP", "location": "Telve", "height": "410 m", "coordinates": [11.477478, 46.058046], "region": "Trento"}, {"code": "L1077", "idente": "LOMBA", "location": "Oltre il Colle", "height": "1138 m", "coordinates": [9.78893967467, 45.8911930459], "region": "Lombardia"}, {"code": "T0169", "idente": "PATUP", "location": "Monte Groste' (Rifugio Graffer)", "height": "2258 m", "coordinates": [10.88975472, 46.21772173], "region": "Trento"}, {"code": "T0175", "idente": "PATUP", "location": "Pinzolo", "height": "760 m", "coordinates": [10.757484, 46.156507], "region": "Trento"}, {"code": "11648", "idente": "PATUD", "location": "Vetriolo", "height": "1520 m", "coordinates": [11.309005, 46.042094], "region": "Trento"}, {"code": "T0407", "idente": "PATUP", "location": "Grigno (Barricata)", "height": "1345 m", "coordinates": [11.590219, 45.979906], "region": "Trento"}, {"code": "F0094", "idente": "FMACH", "location": "Giovo - Bosch", "height": "630 m", "coordinates": [11.127445, 46.15818], "region": "Trento"}, {"code": "L1360", "idente": "LOMBA", "location": "Clusone SP 671", "height": "564 m", "coordinates": [9.93314078978, 45.8809446637], "region": "Lombardia"}, {"code": "08200", "idente": "PABBZ", "location": "Eyrs - Laas", "height": "874 m", "coordinates": [10.6495883968974, 46.6248680127225], "region": "Bolzano"}, {"code": "F0051", "idente": "FMACH", "location": "Avio", "height": "131 m", "coordinates": [10.944334, 45.736847], "region": "Trento"}, {"code": "T0148", "idente": "PATUP", "location": "Terragnolo (Piazza)", "height": "800 m", "coordinates": [11.151135, 45.879641], "region": "Trento"}, {"code": "30984", "idente": "PATUD", "location": "Caoria Valsorda", "height": "832 m", "coordinates": [11.678814, 46.196892], "region": "Trento"}, {"code": "L1230", "idente": "LOMBA", "location": "Lago Truzzo - S.Giacomo Filippo *", "height": "2064 m", "coordinates": [9.31999148436, 46.3605387879], "region": "Lombardia"}, {"code": "F0065", "idente": "FMACH", "location": "Mama di Avio", "height": "124 m", "coordinates": [10.926449, 45.705288], "region": "Trento"}, {"code": "T0428", "idente": "PATUP", "location": "Pieve Di Bono", "height": "525 m", "coordinates": [10.642872, 45.940987], "region": "Trento"}, {"code": "06400", "idente": "PABBZ", "location": "Sulden", "height": "1907 m", "coordinates": [10.5953213499597, 46.5161302873131], "region": "Bolzano"}, {"code": "F0096", "idente": "FMACH", "location": "Pressano", "height": "289 m", "coordinates": [11.11015, 46.153046], "region": "Trento"}, {"code": "T0059", "idente": "PATUP", "location": "Ziano Di Fiemme (Malga Sadole)", "height": "1608 m", "coordinates": [11.597609, 46.260619], "region": "Trento"}, {"code": "T0420", "idente": "PATUP", "location": "Mezzano", "height": "640 m", "coordinates": [11.812625, 46.154673], "region": "Trento"}, {"code": "F0059", "idente": "FMACH", "location": "Aldeno", "height": "183 m", "coordinates": [11.10507, 45.991325], "region": "Trento"}, {"code": "F0018", "idente": "FMACH", "location": "Savignano", "height": "686 m", "coordinates": [11.05757, 45.942333], "region": "Trento"}, {"code": "31922", "idente": "PATUD", "location": "Ponte dei Tedeschi", "height": "378 m", "coordinates": [10.545348, 45.817228], "region": "Trento"}, {"code": "T0099", "idente": "PATUP", "location": "Cima Paganella", "height": "2125 m", "coordinates": [11.037329, 46.143328], "region": "Trento"}, {"code": "F0041", "idente": "FMACH", "location": "Revo", "height": "619 m", "coordinates": [11.057439, 46.38345], "region": "Trento"}, {"code": "11763", "idente": "PATUD", "location": "Levico Ponte Cervia", "height": "436 m", "coordinates": [11.31808, 46.003139], "region": "Trento"}, {"code": "T0065", "idente": "PATUP", "location": "Careser (Diga)", "height": "2600 m", "coordinates": [10.698905, 46.422651], "region": "Trento"}, {"code": "L0143", "idente": "LOMBA", "location": "Livigno - Passo Foscagno", "height": "2320 m", "coordinates": [10.2074996916, 46.4944268149], "region": "Lombardia"}, {"code": "F0031", "idente": "FMACH", "location": "Cles", "height": "656 m", "coordinates": [11.039959, 46.361172], "region": "Trento"}, {"code": "L0912", "idente": "LOMBA", "location": "Foppolo *", "height": "1682 m", "coordinates": [9.75610751626, 46.0424939383], "region": "Lombardia"}, {"code": "L1218", "idente": "LOMBA", "location": "Valcanale *", "height": "1002 m", "coordinates": [9.86343345398, 45.9505615845], "region": "Lombardia"}, {"code": "30710", "idente": "PATUD", "location": "Monte Finonchio", "height": "1588 m", "coordinates": [11.114541, 45.900216], "region": "Trento"}, {"code": "15000", "idente": "PABBZ", "location": "Teufelsegg", "height": "3035 m", "coordinates": [10.7646604896789, 46.784700197226], "region": "Bolzano"}, {"code": "66100", "idente": "PABBZ", "location": "Stutzenalm", "height": "2050 m", "coordinates": [11.6882224297023, 46.925396922899], "region": "Bolzano"}, {"code": "F0069", "idente": "FMACH", "location": "Pietramurata", "height": "242 m", "coordinates": [10.9536, 46.012108], "region": "Trento"}, {"code": "L0134", "idente": "LOMBA", "location": "Bargnano", "height": "93 m", "coordinates": [10.0390328834, 45.4337289602], "region": "Lombardia"}, {"code": "F0023", "idente": "FMACH", "location": "Lomaso", "height": "492 m", "coordinates": [10.866802, 46.014465], "region": "Trento"}, {"code": "33500", "idente": "PABBZ", "location": "St,Jakob in Pfitsch", "height": "1440 m", "coordinates": [11.5981373861659, 46.9656178825367], "region": "Bolzano"}, {"code": "11733", "idente": "PATUD", "location": "Malé", "height": "684 m", "coordinates": [10.913579, 46.347259], "region": "Trento"}, {"code": "F0086", "idente": "FMACH", "location": "Vigolo Vattaro", "height": "706 m", "coordinates": [11.194649, 45.998322], "region": "Trento"}, {"code": "T0423", "idente": "PATUP", "location": "Grigno", "height": "238 m", "coordinates": [11.656835, 46.006312], "region": "Trento"}, {"code": "18975", "idente": "PATUD", "location": "Val Genova O,P,Enel", "height": "879 m", "coordinates": [10.726174, 46.17006], "region": "Trento"}, {"code": "F0063", "idente": "FMACH", "location": "Serravalle", "height": "150 m", "coordinates": [11.01848, 45.805794], "region": "Trento"}, {"code": "F0089", "idente": "FMACH", "location": "Malga Flavona", "height": "2006 m", "coordinates": [10.930422, 46.220734], "region": "Trento"}, {"code": "45200", "idente": "PABBZ", "location": "Pfinnalm", "height": "2152 m", "coordinates": [12.2095819372301, 46.8416942028961], "region": "Bolzano"}, {"code": "F0100", "idente": "FMACH", "location": "Sporminore", "height": "596 m", "coordinates": [11.023337, 46.238625], "region": "Trento"}, {"code": "11800", "idente": "PATUD", "location": "Cimego", "height": "477 m", "coordinates": [10.621715, 45.915173], "region": "Trento"}, {"code": "T0360", "idente": "PATUP", "location": "Passo Tonale", "height": "1875 m", "coordinates": [10.596825, 46.262564], "region": "Trento"}, {"code": "T0364", "idente": "PATUP", "location": "Vermiglio (Capanna Presena)", "height": "2735 m", "coordinates": [10.57871469, 46.22882248], "region": "Trento"}, {"code": "23200", "idente": "PABBZ", "location": "Meran - Gratsch", "height": "333 m", "coordinates": [11.1365602243346, 46.6880578480056], "region": "Bolzano"}, {"code": "L0145", "idente": "LOMBA", "location": "Darfo (shake up)", "height": "222 m", "coordinates": [10.1773658269, 45.874602017], "region": "Lombardia"}, {"code": "F0081", "idente": "FMACH", "location": "Telve", "height": "412 m", "coordinates": [11.47749, 46.058048], "region": "Trento"}, {"code": "T0071", "idente": "PATUP", "location": "Mezzana", "height": "905 m", "coordinates": [10.795904, 46.313313], "region": "Trento"}, {"code": "12315", "idente": "PATUD", "location": "S,Anna", "height": "523 m", "coordinates": [11.100759, 45.794833], "region": "Trento"}, {"code": "T0419", "idente": "PATUP", "location": "Tonadico (Castelpietra)", "height": "1045 m", "coordinates": [11.865668, 46.198934], "region": "Trento"}, {"code": "T0236", "idente": "PATUP", "location": "Romeno", "height": "958 m", "coordinates": [11.118861, 46.390687], "region": "Trento"}, {"code": "F0026", "idente": "FMACH", "location": "Rovereto", "height": "170 m", "coordinates": [11.0197, 45.87825], "region": "Trento"}, {"code": "32201", "idente": "PATUD", "location": "Capriana", "height": "930 m", "coordinates": [11.338789, 46.260248], "region": "Trento"}, {"code": "L0147", "idente": "LOMBA", "location": "Milano - Parco Nord", "height": "142 m", "coordinates": [9.20560456827, 45.5426655764], "region": "Lombardia"}, {"code": "31065", "idente": "PATUD", "location": "Monte Vigo", "height": "2177 m", "coordinates": [10.82655, 46.274879], "region": "Trento"}, {"code": "F0033", "idente": "FMACH", "location": "Ton", "height": "443 m", "coordinates": [11.072985, 46.258751], "region": "Trento"}, {"code": "F0072", "idente": "FMACH", "location": "Mezzocorona Piovi Veci", "height": "208 m", "coordinates": [11.168802, 46.229237], "region": "Trento"}, {"code": "L1238", "idente": "LOMBA", "location": "S.Martino Valmasino *", "height": "943 m", "coordinates": [9.63217761089, 46.2414450153], "region": "Lombardia"}, {"code": "F0060", "idente": "FMACH", "location": "Nomi", "height": "179 m", "coordinates": [11.097726, 45.953716], "region": "Trento"}, {"code": "01080", "idente": "PABBZ", "location": "Pratznerberg", "height": "2450 m", "coordinates": [10.6247484010412, 46.8468066677775], "region": "Bolzano"}, {"code": "T0405", "idente": "PATUP", "location": "Ala (Maso Le Pozze)", "height": "170 m", "coordinates": [11.023828, 45.786137], "region": "Trento"}, {"code": "35205", "idente": "PABBZ", "location": "Wasserfaller Alm", "height": "1907 m", "coordinates": [11.2987285433716, 46.8456007670098], "region": "Bolzano"}, {"code": "F0080", "idente": "FMACH", "location": "Bleggio Superiore", "height": "644 m", "coordinates": [10.8368, 46.025211], "region": "Trento"}, {"code": "09700", "idente": "PABBZ", "location": "Schlanders", "height": "698 m", "coordinates": [10.7802698251306, 46.6237545973082], "region": "Bolzano"}, {"code": "82500", "idente": "PABBZ", "location": "Rittnerhorn", "height": "2260 m", "coordinates": [11.460353374148, 46.6155639596263], "region": "Bolzano"}, {"code": "83200", "idente": "PABBZ", "location": "Bozen", "height": "203 m", "coordinates": [11.3128314758857, 46.4976850222258], "region": "Bolzano"}, {"code": "T0409", "idente": "PATUP", "location": "Pergine Valsugana", "height": "458 m", "coordinates": [11.240239, 46.052554], "region": "Trento"}, {"code": "30586", "idente": "PATUD", "location": "Sass Pordoi", "height": "2967 m", "coordinates": [11.808386, 46.500169], "region": "Trento"}, {"code": "F0088", "idente": "FMACH", "location": "Caldes", "height": "773 m", "coordinates": [10.960859, 46.378632], "region": "Trento"}, {"code": "T0408", "idente": "PATUP", "location": "Mezzolombardo (Maso Delle Part)", "height": "204 m", "coordinates": [11.104432, 46.187266], "region": "Trento"}, {"code": "43200", "idente": "PABBZ", "location": "Welsberg", "height": "1120 m", "coordinates": [12.1289397135736, 46.7431301149472], "region": "Bolzano"}, {"code": "T0092", "idente": "PATUP", "location": "Pian Fedaia (Diga)", "height": "2063 m", "coordinates": [11.862873, 46.459032], "region": "Trento"}, {"code": "11788", "idente": "PATUD", "location": "Spiazzo", "height": "645 m", "coordinates": [10.739211, 46.102197], "region": "Trento"}, {"code": "80100", "idente": "PABBZ", "location": "Traminalm", "height": "2100 m", "coordinates": [11.4773974749299, 46.7950373724637], "region": "Bolzano"}, {"code": "T0167", "idente": "PATUP", "location": "Pradalago (Rifugio Viviani)", "height": "2084 m", "coordinates": [10.813895, 46.249695], "region": "Trento"}, {"code": "42830", "idente": "PABBZ", "location": "Rossalm", "height": "2340 m", "coordinates": [12.1114977823026, 46.6711920793936], "region": "Bolzano"}, {"code": "50400", "idente": "PABBZ", "location": "Lengspitze", "height": "3105 m", "coordinates": [12.1310380034554, 47.0159293931556], "region": "Bolzano"}, {"code": "27100", "idente": "PABBZ", "location": "Gargazon", "height": "254 m", "coordinates": [11.2008276048085, 46.5769617018666], "region": "Bolzano"}, {"code": "20720", "idente": "PABBZ", "location": "Rauhjoch", "height": "2926 m", "coordinates": [11.1146267699857, 46.82887588868], "region": "Bolzano"}, {"code": "T0367", "idente": "PATUP", "location": "Cavalese", "height": "958 m", "coordinates": [11.451713, 46.284782], "region": "Trento"}, {"code": "11737", "idente": "PATUD", "location": "Cavalese Masi", "height": "840 m", "coordinates": [11.48023, 46.284377], "region": "Trento"}, {"code": "50500", "idente": "PABBZ", "location": "Prettau", "height": "1449 m", "coordinates": [12.0991272487365, 47.0365885010867], "region": "Bolzano"}, {"code": "39100", "idente": "PABBZ", "location": "Brixen Vahrn", "height": "590 m", "coordinates": [11.6441713634656, 46.7304923970866], "region": "Bolzano"}, {"code": "T0366", "idente": "PATUP", "location": "Peio", "height": "1585 m", "coordinates": [10.67783, 46.364364], "region": "Trento"}, {"code": "11776", "idente": "PATUD", "location": "Canezza", "height": "603 m", "coordinates": [11.275535, 46.07626], "region": "Trento"}, {"code": "L0819", "idente": "LOMBA", "location": "Laveno di Lozio *", "height": "994 m", "coordinates": [10.2611116904, 45.9805602601], "region": "Lombardia"}, {"code": "41000", "idente": "PABBZ", "location": "Toblach", "height": "1220 m", "coordinates": [12.2191590987673, 46.7299782556617], "region": "Bolzano"}, {"code": "T0381", "idente": "PATUP", "location": "Vallarsa (Parrocchia)", "height": "737 m", "coordinates": [11.122849, 45.780307], "region": "Trento"}, {"code": "T0368", "idente": "PATUP", "location": "Monte Bondone (Viote)", "height": "1490 m", "coordinates": [11.054869, 46.013651], "region": "Trento"}, {"code": "F0087", "idente": "FMACH", "location": "Predazzo", "height": "1001 m", "coordinates": [11.59826, 46.297848], "region": "Trento"}, {"code": "L0125", "idente": "LOMBA", "location": "Castello d` Agogna (ersaf) *", "height": "106 m", "coordinates": [8.70057165223, 45.246800447], "region": "Lombardia"}, {"code": "T0010", "idente": "PATUP", "location": "Levico (Terme)", "height": "502 m", "coordinates": [11.305143, 46.010558], "region": "Trento"}, {"code": "89190", "idente": "PABBZ", "location": "Oberplanitzing - Kaltern", "height": "495 m", "coordinates": [11.252538991687, 46.4423422056046], "region": "Bolzano"}, {"code": "T0354", "idente": "PATUP", "location": "Tremalzo", "height": "1560 m", "coordinates": [10.684142, 45.841658], "region": "Trento"}, {"code": "F0036", "idente": "FMACH", "location": "Cunevo", "height": "552 m", "coordinates": [11.040498, 46.280739], "region": "Trento"}, {"code": "42700", "idente": "PABBZ", "location": "St,Veit in Prags", "height": "1280 m", "coordinates": [12.1000203525294, 46.711877997919], "region": "Bolzano"}, {"code": "F0077", "idente": "FMACH", "location": "Besenello", "height": "180 m", "coordinates": [11.101557, 45.940849], "region": "Trento"}, {"code": "59700", "idente": "PABBZ", "location": "Bruneck", "height": "828 m", "coordinates": [11.9314805536944, 46.8042793405476], "region": "Bolzano"}, {"code": "78480", "idente": "PABBZ", "location": "Obereggen Absam", "height": "2125 m", "coordinates": [11.5466577618975, 46.3635905626724], "region": "Bolzano"}, {"code": "T0389", "idente": "PATUP", "location": "Predazzo", "height": "1000 m", "coordinates": [11.598248, 46.297866], "region": "Trento"}, {"code": "T0203", "idente": "PATUP", "location": "Forte D'Ampola", "height": "740 m", "coordinates": [10.646293, 45.863893], "region": "Trento"}, {"code": "24400", "idente": "PABBZ", "location": "Weissbrunn", "height": "1900 m", "coordinates": [10.8318110418923, 46.4868470993219], "region": "Bolzano"}, {"code": "28248", "idente": "PATUD", "location": "Grigno Ponte Filippini", "height": "246 m", "coordinates": [11.644646, 46.004309], "region": "Trento"}, {"code": "F0078", "idente": "FMACH", "location": "Brancolino", "height": "173 m", "coordinates": [11.021172, 45.898945], "region": "Trento"}, {"code": "F0076", "idente": "FMACH", "location": "Gardolo", "height": "197 m", "coordinates": [11.100472, 46.112576], "region": "Trento"}, {"code": "L1220", "idente": "LOMBA", "location": "Case Pirli - Ponte di Legno *", "height": "1640 m", "coordinates": [10.5065634381, 46.2969056652], "region": "Lombardia"}, {"code": "68600", "idente": "PABBZ", "location": "Vals", "height": "1354 m", "coordinates": [11.6272201641509, 46.8483288845246], "region": "Bolzano"}, {"code": "12319", "idente": "PATUD", "location": "Rovereto Ponte Zigherane", "height": "171 m", "coordinates": [11.022242, 45.881038], "region": "Trento"}, {"code": "56900", "idente": "PABBZ", "location": "Mühlen", "height": "851 m", "coordinates": [11.9474395135566, 46.900256530752], "region": "Bolzano"}, {"code": "11651", "idente": "PATUD", "location": "Telve di Sopra", "height": "669 m", "coordinates": [11.47113, 46.073163], "region": "Trento"}, {"code": "T0076", "idente": "PATUP", "location": "Rabbi (San Bernardo)", "height": "1132 m", "coordinates": [10.849515, 46.401374], "region": "Trento"}, {"code": "F0050", "idente": "FMACH", "location": "Besagno", "height": "382 m", "coordinates": [10.975345, 45.836788], "region": "Trento"}, {"code": "74200", "idente": "PABBZ", "location": "Seiser Alm - Zallinger", "height": "2055 m", "coordinates": [11.6887888089152, 46.5118791023709], "region": "Bolzano"}, {"code": "L0559", "idente": "LOMBA", "location": "Somma Lombardo - MXP", "height": "210 m", "coordinates": [8.71269862713, 45.6495406557], "region": "Lombardia"}, {"code": "28338", "idente": "PATUD", "location": "Terres", "height": "517 m", "coordinates": [11.013831, 46.320467], "region": "Trento"}, {"code": "L0573", "idente": "LOMBA", "location": "Colico", "height": "229 m", "coordinates": [9.38469792393, 46.1381495093], "region": "Lombardia"}, {"code": "F0008", "idente": "FMACH", "location": "Paneveggio", "height": "1543 m", "coordinates": [11.747518, 46.309509], "region": "Trento"}, {"code": "53200", "idente": "PABBZ", "location": "Fadner Alm", "height": "2155 m", "coordinates": [11.8614321795139, 46.9255604698512], "region": "Bolzano"}, {"code": "T0118", "idente": "PATUP", "location": "Cembra", "height": "652 m", "coordinates": [11.217711, 46.170372], "region": "Trento"}, {"code": "T0193", "idente": "PATUP", "location": "Torbole (Belvedere)", "height": "90 m", "coordinates": [10.877355, 45.870095], "region": "Trento"}, {"code": "F0093", "idente": "FMACH", "location": "Terzolas", "height": "730 m", "coordinates": [10.923874, 46.358833], "region": "Trento"}, {"code": "F0054", "idente": "FMACH", "location": "Dro", "height": "113 m", "coordinates": [10.910038, 45.954475], "region": "Trento"}, {"code": "82200", "idente": "PABBZ", "location": "Sarnthein", "height": "966 m", "coordinates": [11.3550613209646, 46.6406315118433], "region": "Bolzano"}, {"code": "54500", "idente": "PABBZ", "location": "Rein in Taufers", "height": "1562 m", "coordinates": [12.0824986494138, 46.9428381249359], "region": "Bolzano"}, {"code": "11705", "idente": "PATUD", "location": "Riva del Garda", "height": "66 m", "coordinates": [10.844142, 45.88336], "region": "Trento"}, {"code": "11400", "idente": "PABBZ", "location": "Hintermartell", "height": "1720 m", "coordinates": [10.7268840782414, 46.5168921456068], "region": "Bolzano"}, {"code": "F0098", "idente": "FMACH", "location": "Brez", "height": "800 m", "coordinates": [11.108862, 46.433762], "region": "Trento"}, {"code": "F0052", "idente": "FMACH", "location": "Levico", "height": "449 m", "coordinates": [11.342454, 46.018063], "region": "Trento"}, {"code": "24170", "idente": "PABBZ", "location": "Weissbrunnspitz", "height": "3253 m", "coordinates": [10.7739831416735, 46.4939777522212], "region": "Bolzano"}, {"code": "L0851", "idente": "LOMBA", "location": "Cavacca *", "height": "1147 m", "coordinates": [10.4991681394, 45.7241648935], "region": "Lombardia"}, {"code": "T0177", "idente": "PATUP", "location": "Val di Breguzzo (Ponte Arno')", "height": "1148 m", "coordinates": [10.640606, 46.032015], "region": "Trento"}, {"code": "T0153", "idente": "PATUP", "location": "Ala (Ronchi)", "height": "692 m", "coordinates": [11.06545, 45.73919], "region": "Trento"}, {"code": "F0102", "idente": "FMACH", "location": "Villazzano", "height": "347 m", "coordinates": [11.147566, 46.053867], "region": "Trento"}, {"code": "T0399", "idente": "PATUP", "location": "Fondo", "height": "910 m", "coordinates": [11.129627, 46.437705], "region": "Trento"}, {"code": "02500", "idente": "PABBZ", "location": "Marienberg", "height": "1310 m", "coordinates": [10.5212676088145, 46.7056889819203], "region": "Bolzano"}, {"code": "F0105", "idente": "FMACH", "location": "Meano-Cortesano", "height": "518 m", "coordinates": [11.124966, 46.115665], "region": "Trento"}, {"code": "T0129", "idente": "PATUP", "location": "Trento (Laste)", "height": "312 m", "coordinates": [11.135703, 46.071801], "region": "Trento"}, {"code": "L0596", "idente": "LOMBA", "location": "Osio Sotto", "height": "182 m", "coordinates": [9.61173782181, 45.6205556794], "region": "Lombardia"}, {"code": "T0014", "idente": "PATUP", "location": "Telve (Pontarso)", "height": "925 m", "coordinates": [11.49451, 46.115819], "region": "Trento"}, {"code": "85700", "idente": "PABBZ", "location": "Branzoll", "height": "226 m", "coordinates": [11.3110664658714, 46.4064787926729], "region": "Bolzano"}, {"code": "L0107", "idente": "LOMBA", "location": "Sondrio (ersaf)", "height": "307 m", "coordinates": [9.84850466311, 46.1655954146], "region": "Lombardia"}, {"code": "T0227", "idente": "PATUP", "location": "Cermis (Casere)", "height": "1900 m", "coordinates": [11.491486, 46.250369], "region": "Trento"}, {"code": "F0091", "idente": "FMACH", "location": "Sarche", "height": "248 m", "coordinates": [10.956287, 46.03228], "region": "Trento"}, {"code": "F0079", "idente": "FMACH", "location": "Livo", "height": "720 m", "coordinates": [11.019969, 46.405174], "region": "Trento"}, {"code": "T0151", "idente": "PATUP", "location": "Mori (Loppio)", "height": "230 m", "coordinates": [10.931371, 45.855333], "region": "Trento"}, {"code": "91210", "idente": "PABBZ", "location": "Hochebenkofel", "height": "2906 m", "coordinates": [12.2572580044019, 46.6801725679853], "region": "Bolzano"}, {"code": "T0410", "idente": "PATUP", "location": "Daone (Pracul)", "height": "897 m", "coordinates": [10.563104, 45.971466], "region": "Trento"}, {"code": "F0103", "idente": "FMACH", "location": "Ravina Belvedere", "height": "281 m", "coordinates": [11.103955, 46.045898], "region": "Trento"}, {"code": "T0431", "idente": "PATUP", "location": "Capriana", "height": "1055 m", "coordinates": [11.33633, 46.263079], "region": "Trento"}, {"code": "L0575", "idente": "LOMBA", "location": "Nibionno", "height": "310 m", "coordinates": [9.26502524335, 45.7511188123], "region": "Lombardia"}, {"code": "30590", "idente": "PATUD", "location": "Cermis", "height": "2224 m", "coordinates": [11.503022, 46.241935], "region": "Trento"}, {"code": "45100", "idente": "PABBZ", "location": "Regelspitze", "height": "2747 m", "coordinates": [12.2003379693186, 46.8560831351021], "region": "Bolzano"}, {"code": "T0032", "idente": "PATUP", "location": "Lavarone (Chiesa)", "height": "1155 m", "coordinates": [11.253721, 45.940308], "region": "Trento"}, {"code": "T0096", "idente": "PATUP", "location": "Moena (Diga Pezze')", "height": "1205 m", "coordinates": [11.664651, 46.383644], "region": "Trento"}, {"code": "L0108", "idente": "LOMBA", "location": "Samolaco (ersaf)", "height": "206 m", "coordinates": [9.42666578883, 46.2361085861], "region": "Lombardia"}, {"code": "F0056", "idente": "FMACH", "location": "Zambana", "height": "201 m", "coordinates": [11.098634, 46.154125], "region": "Trento"}, {"code": "F0097", "idente": "FMACH", "location": "Lavis", "height": "216 m", "coordinates": [11.097886, 46.139389], "region": "Trento"}, {"code": "20050", "idente": "PABBZ", "location": "Timmelsalm", "height": "2230 m", "coordinates": [11.1486754045172, 46.9135735743487], "region": "Bolzano"}, {"code": "T0135", "idente": "PATUP", "location": "Trento (Roncafort)", "height": "194 m", "coordinates": [11.10137, 46.095645], "region": "Trento"}, {"code": "T0024", "idente": "PATUP", "location": "Passo Cereda", "height": "1322 m", "coordinates": [11.915734, 46.195903], "region": "Trento"}, {"code": "F0090", "idente": "FMACH", "location": "Stenico", "height": "662 m", "coordinates": [10.863255, 46.050167], "region": "Trento"}, {"code": "T0082", "idente": "PATUP", "location": "Passo Mendola", "height": "1315 m", "coordinates": [11.189336, 46.419179], "region": "Trento"}, {"code": "69900", "idente": "PABBZ", "location": "Plose", "height": "2472 m", "coordinates": [11.733840976784, 46.6986304322636], "region": "Bolzano"}, {"code": "T0403", "idente": "PATUP", "location": "Canazei (Ciampac)", "height": "2125 m", "coordinates": [11.7714035927686, 46.4469268744881], "region": "Trento"}, {"code": "L0502", "idente": "LOMBA", "location": "Milano - via Juvara", "height": "122 m", "coordinates": [9.22231552821, 45.473227148], "region": "Lombardia"}, {"code": "30980", "idente": "PATUD", "location": "Tognola", "height": "2147 m", "coordinates": [11.778387, 46.241033], "region": "Trento"}, {"code": "T0383", "idente": "PATUP", "location": "Molveno", "height": "835 m", "coordinates": [10.957526, 46.141618], "region": "Trento"}, {"code": "37100", "idente": "PABBZ", "location": "Sterzing Flughafen", "height": "943 m", "coordinates": [11.4385527493631, 46.8850484453336], "region": "Bolzano"}, {"code": "86600", "idente": "PABBZ", "location": "Laimburg", "height": "224 m", "coordinates": [11.2887110963535, 46.3824574419045], "region": "Bolzano"}, {"code": "F0022", "idente": "FMACH", "location": "Faedo - Maso Togn", "height": "696 m", "coordinates": [11.169777, 46.194763], "region": "Trento"}, {"code": "F0104", "idente": "FMACH", "location": "Termon", "height": "654 m", "coordinates": [11.028917, 46.274612], "region": "Trento"}, {"code": "80300", "idente": "PABBZ", "location": "Pens", "height": "1450 m", "coordinates": [11.4144468881402, 46.7798512075458], "region": "Bolzano"}, {"code": "L0130", "idente": "LOMBA", "location": "Brescia - ITAS pastori (ersaf) *", "height": "149 m", "coordinates": [10.2613832239, 45.5261516258], "region": "Lombardia"}, {"code": "L0111", "idente": "LOMBA", "location": "Moggio", "height": "1234 m", "coordinates": [9.49750688247, 45.9130959234], "region": "Lombardia"}, {"code": "86900", "idente": "PABBZ", "location": "Auer", "height": "250 m", "coordinates": [11.3050173731452, 46.3468853391307], "region": "Bolzano"}, {"code": "30715", "idente": "PATUD", "location": "Maso Milano", "height": "263 m", "coordinates": [11.054696, 46.237674], "region": "Trento"}, {"code": "L0586", "idente": "LOMBA", "location": "Costa Volpino", "height": "192 m", "coordinates": [10.0970707559, 45.8271589321], "region": "Lombardia"}, {"code": "F0014", "idente": "FMACH", "location": "Rabbi", "height": "1444 m", "coordinates": [10.806319, 46.410999], "region": "Trento"}, {"code": "T0401", "idente": "PATUP", "location": "Arco (Bruttagosto)", "height": "85 m", "coordinates": [10.887133, 45.910374], "region": "Trento"}, {"code": "L1237", "idente": "LOMBA", "location": "S.Giacomo - Monno *", "height": "1728 m", "coordinates": [10.3088082553, 46.2503040327], "region": "Lombardia"}, {"code": "F0049", "idente": "FMACH", "location": "Mori", "height": "188 m", "coordinates": [10.992567, 45.847416], "region": "Trento"}, {"code": "T0443", "idente": "PATUP", "location": "Brentonico (Santa Caterina)", "height": "727 m", "coordinates": [10.959756, 45.824004], "region": "Trento"}, {"code": "22210", "idente": "PABBZ", "location": "St,Martin in Passeier", "height": "586 m", "coordinates": [11.2295745805175, 46.7824070466209], "region": "Bolzano"}, {"code": "19300", "idente": "PABBZ", "location": "Naturns", "height": "554 m", "coordinates": [10.9911780682067, 46.6476630832086], "region": "Bolzano"}, {"code": "T0009", "idente": "PATUP", "location": "Centa San Nicolo'", "height": "805 m", "coordinates": [11.234176, 45.970142], "region": "Trento"}, {"code": "T0450", "idente": "PATUP", "location": "San Martino di Castrozza", "height": "1470 m", "coordinates": [11.796306, 46.261622], "region": "Trento"}]}
